Lat,Lon,Title,rank,Country,2021 pop.
35.6828387,139.7594549,Tokyo,1,Japan,37339804
28.6517178,77.2219388,Delhi,2,India,31181376
31.2322758,121.4692071,Shanghai,3,China,27795702
-23.5506507,-46.6333824,Sao Paulo,4,Brazil,22237472
19.4326296,-99.1331785,Mexico City,5,Mexico,21918936
23.7861979,90.4026151,Dhaka,6,Bangladesh,21741090
30.0443879,31.2357257,Cairo,7,Egypt,21322750
39.906217,116.3912757,Beijing,8,China,20896820
19.0759899,72.8773928,Mumbai,9,India,20667656
34.6198813,135.490357,Osaka,10,Japan,19110616
24.8546842,67.0207055,Karachi,11,Pakistan,16459472
29.5647398,106.5478767,Chongqing,12,China,16382376
41.0096334,28.9651646,Istanbul,13,Turkey,15415197
-34.6075682,-58.4370894,Buenos Aires,14,Argentina,15257673
22.5414185,88.3576912,Kolkata,15,India,14974073
-4.3217055,15.3125974,Kinshasa,16,DR Congo,14970460
6.4550575,3.3941795,Lagos,17,Nigeria,14862111
14.5907332,120.9809674,Manila,18,Philippines,14158573
39.0856735,117.1951073,Tianjin,19,China,13794450
23.1301964,113.2592945,Guangzhou,20,China,13635397
-22.9110137,-43.2093727,Rio de Janeiro,21,Brazil,13544462
31.5656822,74.3141829,Lahore,22,Pakistan,13095166
12.9767936,77.590082,Bangalore,23,India,12764935
55.7504461,37.6174943,Moscow,24,Russia,12593252
22.555454,114.0543297,Shenzhen,25,China,12591696
13.0836939,80.270186,Chennai,26,India,11235018
4.6533326,-74.083652,Bogota,27,Colombia,11167392
48.8588897,2.320041,Paris,28,France,11078546
-6.1753942,106.827183,Jakarta,29,Indonesia,10915364
-12.0621065,-77.0365256,Lima,30,Peru,10882757
13.7525438,100.4934734,Bangkok,31,Thailand,10722815
17.360589,78.4740613,Hyderabad,32,India,10268653
37.5666791,126.9782914,Seoul,33,South Korea,9967677
35.1851045,136.8998438,Nagoya,34,Japan,9565642
51.5073219,-0.1276474,London,35,United Kingdom,9425622
30.6598628,104.0633717,Chengdu,36,China,9305116
35.6892523,51.3896004,Tehran,37,Iran,9259009
32.0437711,118.7788734,Nanjing,38,China,9143980
10.7715512,106.6983801,Ho Chi Minh City,39,Vietnam,8837544
-8.8272699,13.2439512,Luanda,40,Angola,8631876
30.5951051,114.2999353,Wuhan,41,China,8473405
34.3430507,108.9350839,Xi-an Shaanxi,42,China,8274651
23.0216238,72.5797068,Ahmedabad,43,India,8253226
40.7127281,-74.0060152,New York City,44,United States,8230290
3.1516964,101.6942371,Kuala Lumpur,45,Malaysia,8210745
30.2489634,120.2052342,Hangzhou,46,China,7845501
22.2793278,114.1628131,Hong Kong,47,Hong Kong,7598189
45.9383,3.2553,Surat,48,India,7489742
23.0205969,113.7457788,Dongguan,49,China,7451889
31.3016935,120.5810725,Suzhou,50,China,7427096
23.0247687,113.1146335,Foshan,51,China,7406751
24.638916,46.7160104,Riyadh,52,Saudi Arabia,7387817
41.6749893,123.458674,Shenyang,53,China,7373655
33.3024309,44.3787992,Baghdad,54,Iraq,7323079
-6.8160837,39.2803583,Dar es Salaam,55,Tanzania,7046892
9.8694792,-83.7980749,Santiago,56,Chile,6811595
18.521428,73.8544541,Pune,57,India,6807984
40.4167047,-3.7035825,Madrid,58,Spain,6668865
45.7988273,126.5303997,Haerbin,59,China,6526439
43.6534817,-79.3839347,Toronto,60,Canada,6254571
-19.9227318,-43.9450948,Belo Horizonte,61,Brazil,6139774
1.357107,103.8194992,Singapore,62,Singapore,5991801
15.5635972,32.5349123,Khartoum,63,Sudan,5989024
-26.205,28.049722,Johannesburg,64,South Africa,5926668
38.9181714,121.6282945,Dalian,65,China,5775938
36.0638034,120.3781372,Qingdao,66,China,5742486
41.3828939,2.1774322,Barcelona,67,Spain,5624498
33.6251241,130.6180016,Fukuoka,68,Japan,5516158
36.6507007,117.1140042,Ji-nan Shandong,69,China,5513597
34.7487244,113.6191483,Zhengzhou,70,China,5510341
59.938732,30.316229,Saint Petersburg,71,Russia,5504305
16.7967129,96.1609916,Yangon,72,Myanmar,5421806
31.199004,29.894378,Alexandria,73,Egypt,5381101
5.320357,-4.016107,Abidjan,74,Ivory Coast,5354826
20.6720375,-103.338396,Guadalajara,75,Mexico,5259296
39.9207886,32.8540482,Ankara,76,Turkey,5215747
22.3364709,91.8260479,Chittagong,77,Bangladesh,5132751
-37.8142176,144.9631608,Melbourne,78,Australia,5061439
9.0107934,38.7612525,Addis Ababa,79,Ethiopia,5005524
-33.768528,150.956856,Sydney,80,Australia,4991654
25.6802019,-100.315258,Monterrey,81,Mexico,4955506
-1.2832533,36.8172449,Nairobi,82,Kenya,4922192
21.0294498,105.8544441,Hanoi,83,Vietnam,4874982
-10.3333333,-53.2,Brasilia,84,Brazil,4727902
-33.928992,18.417396,Cape Town,85,South Africa,4709990
21.5810088,39.1653612,Jiddah,86,Saudi Arabia,4696535
28.2302056,112.9335861,Changsha,87,China,4694722
24.8843019,102.8324209,Kunming,88,China,4550831
43.419754,87.319461,Urumqi,89,China,4543684
43.8130735,125.3171216,Changchun,90,China,4520695
31.8644668,119.9562502,Xinbei,91,Taiwan,4434905
23.356377,116.6775918,Shantou,92,China,4407928
31.8228094,117.2218033,Hefei,93,China,4371005
34.5260109,69.1776838,Kabul,94,Afghanistan,4335770
41.8933203,12.4829321,Rome,95,Italy,4278350
29.8622194,121.6203873,Ningbo,96,China,4263843
32.0852997,34.7818064,Tel Aviv,97,Israel,4263745
45.5031824,-73.5698065,Montreal,98,Canada,4247446
38.0429742,114.5088385,Shijiazhuang,99,China,4199392
-8.0584933,-34.8848193,Recife,100,Brazil,4174774
3.8689867,11.5213344,Yaounde,101,Cameroon,4164167
-30.0324999,-51.2303767,Porto Alegre,102,Brazil,4160682
-3.7304512,-38.5217989,Fortaleza,103,Brazil,4119633
49.1813403,-0.3635615,Kano,104,Nigeria,4103015
6.2443382,-75.573553,Medellin,105,Colombia,4033783
26.9154576,75.8189817,Jaipur,106,India,4007505
34.0536909,-118.242766,Los Angeles,107,United States,3983540
37.870009,112.5452739,Taiyuan Shanxi,108,China,3975985
22.8193063,108.3627211,Nanning,109,China,3974322
-26.184765,28.3210725,Ekurhuleni,110,South Africa,3969937
13.8000382,-88.9140683,Salvador,111,Brazil,3880314
33.5950627,-7.6187768,Casablanca,112,Morocco,3793585
4.0429408,9.706203,Douala,113,Cameroon,3793363
24.4801069,118.0853479,Xiamen,114,China,3790792
26.8381,80.9346001,Lucknow,115,India,3764619
26.0774954,119.2918215,Fuzhou Fujian,116,China,3764559
31.8122623,119.9691539,Changzhou,117,China,3749712
11.2450558,75.7754716,Kozhikode,118,India,3742198
-25.4295963,-49.2712724,Curitiba,119,Brazil,3726050
27.9963899,120.695345,Wenzhou,120,China,3725342
28.687547,115.8540042,Nanchang,121,China,3709958
7.3777462,3.8972497,Ibadan,122,Nigeria,3649023
11.1068448,76.1099551,Malappuram,123,India,3608928
52.5170365,13.3888599,Berlin,124,Germany,3566791
39.6295591,118.1738665,Tangshan Hebei,125,China,3562719
31.4220558,73.0923253,Faisalabad,126,Pakistan,3542020
-18.9100122,47.5255809,Antananarivo,127,Madagascar,3531887
-6.2349858,106.9945444,Bekasi,128,Indonesia,3510050
6.698081,-1.6230404,Kumasi,129,Ghana,3490030
0.3177137,32.5813539,Kampala,130,Uganda,3469510
35.1799528,129.0752365,Busan,131,South Korea,3465946
9.0643305,7.4892974,Abuja,132,Nigeria,3464123
25.7561647,112.72964,Guiyang,133,China,3407463
-25.2800459,-57.6343814,Asuncion,134,Paraguay,3394309
18.4801972,-69.942111,Santo Domingo,135,Dominican Republic,3388809
-22.90556,-47.06083,Campinas,136,Brazil,3343816
31.4933074,120.3074357,Wuxi,137,China,3315113
36.2974945,59.6059232,Mashhad,138,Iran,3264101
18.833333,-98,Puebla,139,Mexico,3244710
14.693425,-17.447938,Dakar,140,Senegal,3229800
10.5256264,76.2132542,Thrissur,141,India,3212604
9.931308,76.2674136,Kochi,142,India,3193029
29.3797091,47.9735629,Kuwait City,143,Kuwait,3177315
-29.861825,31.009909,Durban,144,South Africa,3176254
4.7676576,7.0188527,Port Harcourt,145,Nigeria,3171076
36.0620781,103.8318566,Lanzhou,146,China,3153808
26.4609135,80.3217588,Kanpur,147,India,3153425
37.9839412,23.7283052,Athens,148,Greece,3153255
45.4641943,9.1896346,Milan,149,Italy,3144473
22.7203616,75.8681996,Indore,150,India,3113445
39.0167979,125.7473609,Pyongyang,151,North Korea,3108108
15.260691,44.424895,Sanaa,152,Yemen,3075257
-2.2895167,-80.0983887,Guayaquil,153,Ecuador,3042941
38.4147331,27.1434119,Izmir,154,Turkey,3024020
50.4500336,30.5241361,Kiev,155,Ukraine,3000604
14.6222328,-90.5185188,Guatemala City,156,Guatemala,2983174
-7.2459717,112.7378266,Surabaya,157,Indonesia,2972091
38.7077507,-9.1365919,Lisbon,158,Portugal,2971587
10.506098,-66.9146017,Caracas,159,Venezuela,2945858
22.5213807,113.3656141,Zhongshan,160,China,2941522
21.1498134,79.0820556,Nagpur,161,India,2940487
34.979149,138.38299,Shizuoka,162,Japan,2930341
25.2653471,55.2924914,Dubai,163,United Arab Emirates,2921376
12.3681873,-1.5270944,Ouagadougou,164,Burkina Faso,2914619
-15.4164488,28.2821535,Lusaka,165,Zambia,2905993
11.0018115,76.9628425,Coimbatore,166,India,2860445
18.547327,-72.3395928,Port-au-Prince,167,Haiti,2843925
-6.4071903,106.8158348,Depok,168,Indonesia,2836941
36.583333,114.483333,Handan,169,China,2824345
37.456,126.7052,Incheon,170,South Korea,2818288
3.4517923,-76.5324943,Cali,171,Colombia,2809508
36.7753606,3.0601882,Algiers,172,Algeria,2809158
33.5524785,119.1075773,Huaian,173,China,2770106
53.4794892,-2.2451148,Manchester,174,United Kingdom,2750120
-16.680882,-49.2532691,Goiania,175,Brazil,2747887
36.7071591,119.1557441,Weifang,176,China,2746160
25.0375198,121.5636796,Taibei,177,Taiwan,2731208
12.6132655,-7.9847391,Bamako,178,Mali,2713230
8.5241122,76.9360573,Thiruvananthapuram,179,India,2690703
36.819626,117.980675,Zibo,180,China,2685108
41.8755616,-87.6244212,Chicago,181,United States,2679080
43.061936,141.3542924,Sapporo,182,Japan,2670121
-25.7459374,28.1879444,Pretoria,183,South Africa,2655282
-6.1258942,23.5998111,Mbuji-Mayi,184,DR Congo,2642794
29.9992425,120.576854,Shaoxing,185,China,2633145
52.4796992,-1.9026911,Birmingham,186,United Kingdom,2626374
37.461928,121.4425255,Yantai,187,China,2609465
-6.9344694,107.6049539,Bandung,188,Indonesia,2606850
49.2608724,-123.113952,Vancouver,189,Canada,2606351
23.1146515,114.4107202,Huizhou,190,China,2605871
-11.6642316,27.4826264,Lubumbashi,191,DR Congo,2584133
5.5571096,-0.2012376,Accra,192,Ghana,2556972
41.3123363,69.2787079,Tashkent,193,Uzbekistan,2545159
19.292545,-99.6569007,Toluca de Lerdo,194,Mexico,2522407
25.6093239,85.1235252,Patna,195,India,2481530
-0.7264327,15.6419155,Brazzaville,196,Republic of the Congo,2469630
34.6556873,112.4209629,Luoyang,197,China,2461883
23.2584857,77.401989,Bhopal,198,India,2446882
18.465299,-66.116666,San Juan,199,Puerto Rico,2445462
33.5130695,36.3095814,Damascus,200,Syria,2439814
-27.4689682,153.0234991,Brisbane,201,Australia,2439467
33.8959203,35.47843,Beirut,202,Lebanon,2434609
33.8439408,9.400138,Tunis,203,Tunisia,2402680
-6.1760311,106.6384468,Tangerang,204,Indonesia,2397447
2.0349312,45.3419183,Mogadishu,205,Somalia,2387920
40.1639991,50.2777093,Baku,206,Azerbaijan,2370776
3.5896654,98.6738261,Medan,207,Indonesia,2368348
31.7043556,35.2061876,Belem,208,Brazil,2360474
31.9827896,120.8904588,Nantong,209,China,2351145
38.2677554,140.8691498,Sendai,210,Japan,2334959
29.7589382,-95.3676974,Houston,211,United States,2323660
-3.1316333,-59.9825041,Manaus,212,Brazil,2302374
10.9799669,-74.8013085,Barranquilla,213,Colombia,2299186
10.6498095,-71.6443596,Maracaibo,214,Venezuela,2296118
32.1525312,74.1933745,Gujranwala,215,Pakistan,2290461
33.5914237,73.0535122,Rawalpindi,216,Pakistan,2280733
34.0123846,71.5787458,Peshawar,217,Pakistan,2272812
24.9929995,121.3010003,Taoyuan,218,Taiwan,2271507
27.1752554,78.0098161,Agra,219,India,2261561
40.8337963,111.6730788,Hohhot,220,China,2239344
40.6549157,109.8344586,Baotou,221,China,2238823
22.2973142,73.1942567,Vadodara,222,India,2232521
11.8762254,75.3738043,Kannur,223,India,2226693
24.3284746,109.4239676,Liuzhou,224,China,2226508
17.7231276,83.3012842,Visakhapatnam,225,India,2225906
34.2066591,117.278286,Xuzhou,226,China,2193219
35.8713,128.6018,Daegu,227,South Korea,2190571
40.8359336,14.2487826,Naples,228,Italy,2182885
31.9515694,35.9239625,Amman,229,Jordan,2182151
32.5010188,-116.964662,Tijuana,230,Mexico,2181104
32.6707877,51.6650002,Esfahan,231,Iran,2176927
11.568271,104.9224426,Phnom Penh,232,Cambodia,2143591
23.135305,-82.3589631,Havana,233,Cuba,2142866
20.0112475,73.7902364,Nashik,234,India,2123018
-3.1559361,-59.2794889,Grande Vitoria,235,Brazil,2109869
16.5087586,80.6185102,Vijayawada,236,India,2104113
50.8465573,4.351697,Brussels,237,Belgium,2095688
21.420847,39.826869,Mecca,238,Saudi Arabia,2078766
34.3916058,132.4518156,Hiroshima,239,Japan,2077569
-31.9527121,115.8604796,Perth,240,Australia,2067333
30.1979793,71.4724978,Multan,241,Pakistan,2059534
32.3969935,119.4077008,Yangzhou,242,China,2039472
53.9024716,27.5618225,Minsk,243,Belarus,2038822
40.1827657,29.0677305,Bursa,244,Turkey,2021116
38.8579735,115.490696,Baoding,245,China,2019960
36.19924,37.1637253,Aleppo,246,Syria,2003671
25.4557366,119.0029034,Putian,247,China,2002884
28.6581723,121.4163876,Taizhou Zhejiang,248,China,1992626
9.5170602,-13.6998434,Conakry,249,Guinea,1991134
37.1767104,116.8507744,Linyi Shandong,250,China,1984133
31.3536127,118.4277477,Wuhu Anhui,251,China,1960681
48.2083537,16.3725042,Vienna,252,Austria,1944910
8.8879509,76.5955013,Kollam,253,India,1940571
39.4697065,-0.3763353,Valencia,254,Venezuela,1934891
22.3053263,70.8028377,Rajkot,255,India,1933522
20.0462328,110.1956502,Haikou,256,China,1931705
43.2363924,76.9457275,Almaty,257,Kazakhstan,1927623
-24.0443878,-46.7040929,Baixada Santista,258,Brazil,1911338
33.3495657,120.1576778,Yancheng Jiangsu,259,China,1907903
46.5969028,125.1014811,Daqing,260,China,1907293
34.022405,-6.834543,Rabat,261,Morocco,1907071
53.7414271,-1.7202004,West Yorkshire,262,United Kingdom,1901947
-6.9903988,110.4229104,Semarang,263,Indonesia,1901570
-0.2201641,-78.5123274,Quito,264,Ecuador,1900571
8.9714493,-79.5341802,Panama City,265,Panama,1899081
17.360589,78.4740613,Hyderabad,266,Pakistan,1886734
30.9090157,75.851601,Ludhiana,267,India,1885456
-16.4955455,-68.1336229,La Paz,268,Bolivia,1881796
34.5978596,119.215813,Lianyungang,269,China,1877847
6.130419,1.215829,Lome,270,Togo,1874394
7.0645451,125.6084371,Davao City,271,Philippines,1866401
26.0962497,-99.2763436,Leon de los Aldamas,272,Mexico,1848932
22.273734,113.5721327,Zhuhai,273,China,1803711
45.0677551,7.6824892,Turin,274,Italy,1795235
44.4361414,26.1027202,Bucharest,275,Romania,1794248
36.9863599,35.3252861,Adana,276,Turkey,1792565
52.2319581,21.0067249,Warsaw,277,Poland,1789620
53.550341,10.000654,Hamburg,278,Germany,1788995
40.0919817,113.2951122,Datong,279,China,1788913
6.3330586,5.6221058,Benin City,280,Nigeria,1781999
47.4979937,19.0403594,Budapest,281,Hungary,1771865
9.9261153,78.1140983,Madurai,282,India,1765534
-34.9058916,-56.1913095,Montevideo,283,Uruguay,1759906
24.8755492,118.6723605,Quanzhou,284,China,1755721
-2.9888297,104.756857,Palembang,285,Indonesia,1753269
-17.78629,-63.18117,Santa Cruz,286,Bolivia,1748540
-25.966917,32.466956,Matola,287,Mozambique,1748247
37.0628317,37.3792617,Gaziantep,288,Turkey,1739687
25.3461498,55.4210633,Sharjah,289,United Arab Emirates,1736799
33.4484367,-112.0741417,Phoenix,290,United States,1733630
45.7578137,4.8320114,Lyon,291,France,1733581
29.0006525,77.7682288,Meerut,292,India,1728435
22.5816619,113.0761073,Jiangmen,293,China,1713021
10.0451859,105.7448944,Can Tho,294,Vietnam,1703487
21.2379469,81.6336833,Raipur,295,India,1702048
25.3356491,83.0076292,Varanasi,296,India,1692509
32.010998,112.1163785,Xiangyang,297,China,1684991
36.343694,43.0997156,Mosul,298,Iraq,1683029
55.8609825,-4.2488787,Glasgow,299,United Kingdom,1680669
55.0282171,82.9234509,Novosibirsk,300,Russia,1675866
29.6060218,52.5378041,Shiraz,301,Iran,1675226
25.542759670002300,-103.40687005418600,La Laguna,302,Mexico,1674258
30.1708675,121.261786,Cixi,303,China,1672457
59.3251172,18.0710935,Stockholm,304,Sweden,1656571
41.1075276,122.9902689,Anshan,305,China,1647001
-36.852095,174.7631803,Auckland,306,New Zealand,1630092
22.8015194,86.2029579,Jamshedpur,307,India,1629621
38.0739964,46.2961952,Tabriz,308,Iran,1627304
38.4852037,106.2261926,Yinchuan,309,China,1626584
42.9995032,125.9816054,Jilin,310,China,1623240
34.0747444,74.8204443,Srinagar,311,India,1622454
1.1061034,104.0378246,Batam,312,Indonesia,1617168
47.9490993,107.0222591,Ulaanbaatar,313,Mongolia,1615094
43.2961743,5.3699525,Marseille,314,France,1613797
-5.1342962,119.4124282,Makassar,315,Indonesia,1612249
30.694088,111.2803074,Yichang,316,China,1605526
19.877263,75.3390241,Aurangabad,317,India,1599927
23.5882019,58.3829448,Muscat,318,Oman,1589865
39.9395724,119.5894129,Qinhuangdao,319,China,1585961
39.9527237,-75.1635262,Philadelphia,320,United States,1585010
-31.4173391,-64.183319,Cordoba,321,Argentina,1584599
47.3523672,123.9164653,Qiqihaer,322,China,1583663
36.617331,101.7761976,Xining,323,China,1583164
35.8224892,50.9904681,Karaj,324,Iran,1582351
29.4246002,-98.4951405,San Antonio,325,United States,1581730
51.0460954,-114.065465,Calgary,326,Canada,1580659
27.0782342,112.3356329,Hengyang,327,China,1573731
36.3496,127.3848,Daejon,328,South Korea,1569459
6.328034,-10.797788,Monrovia,329,Liberia,1569013
11.1017815,77.345192,Tiruppur,330,India,1558993
-32.9595004,-60.6615415,Rosario,331,Argentina,1553530
48.1371079,11.5753822,Munich,332,Germany,1553373
22.6203348,120.3120375,Gaoxiong,333,Taiwan,1541861
-17.831773,31.045686,Harare,334,Zimbabwe,1541824
31.7097961,-106.455581,Ciudad Juarez,335,Mexico,1539758
36.1023552,114.33633,Anyang,336,China,1524622
-5.8951725,22.408589,Kananga,337,DR Congo,1524234
35.1595775,126.8515089,Gwangju,338,South Korea,1523822
33.9646533,118.2697192,Suqian,339,China,1520240
35.4125047,116.5849266,Jining Shandong,340,China,1518329
24.471153,39.6111216,Medina,341,Saudi Arabia,1517501
56.839104,60.60825,Yekaterinburg,342,Russia,1513142
24.4538352,54.3774014,Abu Dhabi,343,United Arab Emirates,1511768
26.2967719,73.0351433,Jodhpur,344,India,1509826
-28.500238,-53.586696,Grande Sao Luis,345,Brazil,1498475
53.535411,-113.507996,Edmonton,346,Canada,1491076
-5.805398,-35.2080905,Natal,347,Brazil,1485363
14.1056861,-87.204676,Tegucigalpa,348,Honduras,1485300
6.1461619,6.8019088,Onitsha,349,Nigeria,1482971
11.72559,15.24422,N-Djamena,350,Chad,1476115
23.3700354,85.3250132,Ranchi,351,India,1474748
27.708317,85.3205817,Kathmandu,352,Nepal,1471867
23.1608938,79.9497702,Jabalpur,353,India,1471644
21.9812746,96.082375,Mandalay,354,Myanmar,1469193
40.8228016,114.880567,Zhangjiakou,355,China,1468954
32.5866826,117.0130019,Huainan,356,China,1461918
23.6871297,86.9746587,Asansol,357,India,1453747
23.6566146,116.6205482,Chaozhou,358,China,1449830
25.1968256,76.0008933,Kota,359,India,1430870
32.7174202,-117.1627728,San Diego,360,United States,1427720
49.9923181,36.2310146,Kharkiv,361,Ukraine,1425987
37.3361905,-121.890583,San Jose,362,Costa Rica,1420533
12.9546871,100.7746521,Chon Buri,363,Thailand,1417247
25.4381302,81.8338005,Allahabad,364,India,1415463
26.2037247,78.1573628,Gwalior,365,India,1409820
45.4211435,-75.6900574,Ottawa,366,Canada,1407928
47.3744489,8.5410422,Zurich,367,Switzerland,1407572
44.8178131,20.4568974,Belgrade,368,Serbia,1401786
31.6343083,74.8736788,Amritsar,369,India,1400311
-7.1215981,-34.882028,Joao Pessoa,370,Brazil,1393345
29.3063535,120.0702682,Yiwu,371,China,1386791
30.4952371,47.8090981,Basra,372,Iraq,1381731
32.4585613,119.9181228,Taizhou Jiangsu,373,China,1381569
18.0629628,-15.9629106,Nouakchott,374,Mauritania,1372244
20.5927744,-100.3902245,Queretaro,375,Mexico,1364446
36.2002968,117.0809316,Taian Shandong,376,China,1364154
34.7333334,36.7166667,Homs,377,Syria,1362480
55.6867243,12.5700724,Copenhagen,378,Denmark,1358608
37.8768277,32.4874202,Konya,379,Turkey,1356280
7.1114611,-73.1172869,Bucaramanga,380,Colombia,1348882
23.7952809,86.4309638,Dhanbad,381,India,1348238
37.5120997,122.1152599,Weihai,382,China,1347865
32.7762719,-96.7968559,Dallas,383,United States,1347120
25.8332103,114.9287362,Ganzhou,384,China,1347065
-34.9281805,138.5999312,Adelaide,385,Australia,1345445
20.858864,106.6749591,Hai Phong,386,Vietnam,1341015
-4.05052,39.667169,Mombasa,387,Kenya,1340913
24.163162,120.6478282,Taizhong,388,Taiwan,1338086
-9.6476843,-35.7339264,Maceio,389,Brazil,1336999
-17.4012458,-66.1675737,Cochabamba,390,Bolivia,1336752
13.524834,2.109823,Niamey,391,Niger,1335700
37.266667,127.016667,Suwon,392,South Korea,1331826
13.6531651,100.8182578,Samut Prakan,393,Thailand,1324319
48.4433253,5.1377537,Joinville,394,Brazil,1319042
30.7474425,120.7510971,Jiaxing,395,China,1318418
34.7961106,114.3472038,Kaifeng,396,China,1317530
60.1674881,24.9427473,Helsinki,397,Finland,1316757
41.1494512,-8.6107884,Porto,398,Portugal,1316445
21.2737079,110.3548318,Zhanjiang,399,China,1315369
27.7237996,106.9191408,Zunyi,400,China,1313433
35.4150703,119.5214512,Rizhao,401,China,1312824
0.5184021,25.2057292,Kisangani,402,DR Congo,1312353
50.0874654,14.4212535,Prague,403,Czech Republic,1312199
37.4334738,118.6689349,Dongying,404,China,1311494
34.6423117,50.8800969,Qom,405,Iran,1311172
31.4627341,104.7463432,Mianyang Sichuan,406,China,1300725
30.792362,106.0826662,Nanchong,407,China,1299462
41.8692972,123.924157,Fushun Liaoning,408,China,1288357
36.9009641,30.6954846,Antalya,409,Turkey,1287439
28.457876,79.4055709,Bareilly,410,India,1285964
42.6978634,23.3221789,Sofia,411,Bulgaria,1284311
32.6314877,110.792752,Shiyan,412,China,1280495
55.7823547,49.1242266,Kazan,413,Russia,1279794
26.4367824,50.1039991,Ad-Dammam,414,Saudi Arabia,1279092
-33.9617051,25.6207519,Port Elizabeth,415,South Africa,1266533
31.3229936,48.6793316,Ahvaz,416,Iran,1261042
33.3705714,113.2720234,Liuan,417,China,1260817
-27.5973002,-48.5496098,Florianopolis,418,Brazil,1259112
56.3264816,44.0051395,Nizhniy Novgorod,419,Russia,1255073
-4.7975373,11.8503297,Pointe-Noire,420,Republic of the Congo,1253939
40.6747155,122.2357736,Yingkou,421,China,1251867
34.0346534,-5.0161926,Fes,422,Morocco,1245303
27.8769897,78.1372903,Aligarh,423,India,1244591
28.166416,113.6375778,Liuyang,424,China,1242055
53.3497645,-6.2602732,Dublin,425,Ireland,1241953
21.6656961,110.9209511,Maoming,426,China,1238809
35.777103,-5.803792,Tanger,427,Morocco,1238322
5.6394753,100.4815031,Pekan Baru,428,Indonesia,1238274
35.113997,117.1599113,Tengzhou,429,China,1236764
8.479004,-13.26795,Freetown,430,Sierra Leone,1236425
22.5000001,-100.4949145,San Luis Potosi,431,Mexico,1235426
12.3051828,76.6553609,Mysore,432,India,1234992
55.1598408,61.4025547,Chelyabinsk,433,Russia,1232887
28.8638424,78.8057783,Moradabad,434,India,1232190
10.0740372,-69.3215667,Barquisimeto,435,Venezuela,1227444
21.19,81.28,Durg-Bhilai,436,India,1225129
31.3016935,120.5810725,Suzhou,437,China,1219579
10.2375144,-67.5890216,Maracay,438,Venezuela,1216288
51.1282205,71.4306682,Astana,439,Kazakhstan,1211789
27.4989086,113.1529127,Zhuzhou,440,China,1209032
27.7809047,120.6512652,Ruian,441,China,1208306
5.0322447,7.924791,Uyo,442,Nigeria,1199929
32.1901111,119.4200584,Zhenjiang Jiangsu,443,China,1199515
34.3645811,107.2332184,Baoji,444,China,1197824
23.5528679,116.3680847,Jieyang,445,China,1194681
42.2799929,118.9426131,Chifeng,446,China,1194621
20.2667774,85.8435592,Bhubaneswar,447,India,1194431
33.7374744,113.2981436,Pingdingshan Henan,448,China,1193224
23.3000046,116.1611114,Puning,449,China,1192348
-34.787093,-68.4381868,Mendoza,450,Argentina,1191470
-6.5962986,106.7972421,Bogor,451,Indonesia,1183090
18.7882778,98.9858802,Chiang Mai,452,Thailand,1182498
-2.5196915,32.9014417,Mwanza,453,Tanzania,1182011
10.804973,78.6870296,Tiruchirappalli,454,India,1181912
54.991375,73.371529,Omsk,455,Russia,1181590
38.9174665,-6.3443977,Merida,456,Mexico,1181387
41.297577,123.7646562,Benxi,457,China,1176490
33.9566098,116.7928916,Huaibei,458,China,1174248
-13.9875107,33.768144,Lilongwe,459,Malawi,1170870
33.0010496,112.5292693,Nanyang Henan,460,China,1170491
29.1080344,119.6486487,Jinhua,461,China,1170332
27.8328352,112.9388078,Xiangtan Hunan,462,China,1170327
-1.950851,30.061507,Kigali,463,Rwanda,1169889
32.896672,13.1777923,Tripoli,464,Libya,1169790
30.7334421,76.7797143,Chandigarh,465,India,1169244
41.108528,121.1194219,Jinzhou,466,China,1168535
33.6938118,73.0651511,Islamabad,467,Pakistan,1163584
53.198627,50.113987,Samara,468,Russia,1160167
52.3727598,4.8936041,Amsterdam,469,Netherlands,1157519
16.068,108.212,Da Nang,470,Vietnam,1156585
32.8191218,34.9983856,Haifa,471,Israel,1155006
25.2383172,110.1752245,Guilin,472,China,1154702
63.3233807,97.0979974,Krasnoyarsk,473,Russia,1148957
32.6248622,-115.448325,Mexicali,474,Mexico,1140298
54.7261409,55.947499,Ufa,475,Russia,1139561
47.2213858,39.7114196,Rostov-on-Don,476,Russia,1137147
15.3518378,75.1379848,Hubli-Dharwad,477,India,1136923
26.1805978,91.753943,Guwahati,478,India,1135065
10.3825318,7.8533226,Kaduna,479,Nigeria,1133430
-2.5103908,28.8336436,Bukavu,480,DR Congo,1133371
26.5963778,104.8279652,Liupanshui,481,China,1131854
30.1957677,67.0172447,Quetta,482,Pakistan,1129361
50.938361,6.959974,Cologne,483,Germany,1128652
22.0000001,-102.5000001,Aguascalientes,484,Mexico,1124909
37.3821206,117.9647262,Binzhou,485,China,1124728
44.9391565,-123.033121,Salem,486,India,1123873
6.4153695,2.3062284,Abomey-Calavi,487,Benin,1122713
-25.966213,32.56745,Maputo,488,Mozambique,1121697
-5.4460713,105.2643742,Bandar Lampung,489,Indonesia,1114740
5.112735,7.364349,Aba,490,Nigeria,1114388
34.3402702,118.0068173,Pizhou,491,China,1114385
6.019531,6.917181,Nnewi,492,Nigeria,1113546
-7.3262484,108.2201154,Tasikmalaya,493,Indonesia,1112112
13.6989939,-89.1914249,San Salvador,494,El Salvador,1107305
37.2405741,127.1785572,Yongin,495,South Korea,1103265
34.8113006,117.3178278,Zaozhuang,496,China,1101823
35.3021133,113.9202062,Xinxiang,497,China,1100407
28.1154378,120.9833927,Yueqing,498,China,1098931
33.5720554,114.0285163,Luohe,499,China,1096233
29.9880774,77.5081299,Saharanpur,500,India,1094581
42.3337389,69.5169406,Shimkent,501,Kazakhstan,1093289
18.9218274,-99.2342282,Cuernavaca,502,Mexico,1091173
40.1776245,44.5126174,Yerevan,503,Armenia,1089181
37.6581862,126.8319452,Goyang,504,South Korea,1082815
41.6934591,44.8014495,Tbilisi,505,Georgia,1078846
28.5000001,-106.0000001,Chihuahua,506,Mexico,1075861
41.1169056,122.0655098,Panjin,507,China,1075647
58.5951603,56.3159546,Perm,508,Russia,1075424
-3.3638125,29.3675028,Bujumbura,509,Burundi,1074642
31.2920107,75.5680577,Jalandhar,510,India,1074383
12.1459907,-86.2746665,Managua,511,Nicaragua,1072852
51.6605982,39.2005858,Voronezh,512,Russia,1072807
10.4195841,-75.5271224,Cartagena,513,Colombia,1070692
28.3754144,121.3812013,Wenling,514,China,1069840
50.6365654,3.0635282,Lille,515,France,1068051
32.8926763,115.8090001,Fuyang,516,China,1065192
42.8765615,74.6070079,Bishkek,517,Kyrgyzstan,1060113
37.9162222,40.2363542,Diyarbakir,518,Turkey,1059686
31.8689322,106.7416618,Bazhong,519,China,1057600
26.7164127,88.4309916,Siliguri,520,India,1056551
59.9133301,10.7389701,Oslo,521,Norway,1056180
28.4582821,117.9381305,Shangrao,522,China,1055178
35.227956,128.6818586,Changwon,523,South Korea,1054775
30.3375134,112.2337792,Jingzhou Hubei,524,China,1054743
31.6866105,118.5048377,Ma'anshan,525,China,1051771
23.0496201,112.4593053,Zhaoqing,526,China,1050908
51.2211097,4.3997081,Antwerp,527,Belgium,1047613
34.3789744,46.7010122,Kermanshah,528,Iran,1046604
39.0480479,115.9075331,Xiongan,529,China,1045719
10.9560264,106.8529805,Bien Hoa,530,Vietnam,1045708
1.4728119,103.7642651,Johor Bahru,531,Malaysia,1044548
17.8499067,75.2763203,Solapur,532,India,1041886
-0.5017804,117.1393089,Samarinda,533,Indonesia,1041183
43.6044622,1.4442469,Toulouse,534,France,1037115
36.8117583,34.6292679,Mersin,535,Turkey,1034693
9.561733,44.061803,Hargeysa,536,Somalia,1033205
-5.0896403,-42.809588,Teresina,537,Brazil,1031220
35.4703415,44.395723,Kirkuk,538,Iraq,1031082
27.9511188,116.3530413,Fuzhou Jiangxi,539,China,1028734
-10.9162061,-37.0774655,Aracaju,540,Brazil,1026529
11.1757783,-4.2957591,Bobo-Dioulasso,541,Burkina Faso,1022118
29.5851296,103.747791,Leshan,542,China,1022088
29.3594838,113.1229551,Yueyang,543,China,1021350
37.4486676,116.305416,Dezhou,544,China,1019111
31.6267948,-8.0030243,Marrakech,545,Morocco,1017379
22.2329889,-97.8614802,Tampico,546,Mexico,1016514
30.8942995,120.0851114,Huzhou,547,China,1015538
51.9244424,4.47775,Rotterdam,548,Netherlands,1012007
12.789585,45.028504,Aden,549,Yemen,1011890
30.2711286,-97.7436995,Austin,550,United States,1011790
37.3361905,-121.890583,San Jose,551,United States,1009340
-8.6524973,115.2191175,Denpasar,552,Indonesia,1008709
46.4873195,30.7392776,Odesa,553,Ukraine,1008508
25.7733598,113.0094337,Chenzhou,554,China,1004240
34.0457133,113.8225908,Xuchang,555,China,1001570
48.7081906,44.5153353,Volgograd,556,Russia,1000755
25.4230425,-100.9927509,Saltillo,557,Mexico,1000750
-26.8303703,-65.2038133,San Miguel de Tucuman,558,Argentina,999907
15.3389667,38.9326763,Asmara,559,Eritrea,998321
-0.9247587,100.3632561,Padang,560,Indonesia,997358
10.2931062,123.9020773,Cebu City,561,Philippines,993744
16.8680495,-99.8940182,Acapulco de Juarez,562,Mexico,992205
-33.0458456,-71.6196749,Valparaiso,563,Chile,992183
4.927456,-1.7490216,Sekondi Takoradi,564,Ghana,990661
6.6191233,3.5041271,Ikorodu,565,Nigeria,989117
38.6582232,35.5546374,Kayseri,566,Turkey,986987
17.9819448,79.5969982,Warangal,567,India,983128
31.6572954,120.7480757,Changshu,568,China,981654
44.841225,-0.5800364,Bordeaux,569,France,980130
6.8790221,100.5498542,Songkhla,570,Thailand,979453
25.4936418,103.7943084,Qujing,571,China,976171
13.8610918,100.3456772,Nonthaburi,572,Thailand,975497
27.81697,114.4112498,Yichun Jiangxi,573,China,975387
45.0352566,38.9764814,Krasnodar,574,Russia,974377
8.4963657,4.5480484,Ilorin,575,Nigeria,973671
21.1617854,-86.8510468,Cancun,576,Mexico,971798
-6.4230495,20.7887691,Tshikapa,577,DR Congo,970831
12.0505098,24.8795115,Nyala,578,Sudan,967430
35.9068588,117.76243,Xintai,579,China,966759
45.2928513,130.9619259,Jixi Heilongjiang,580,China,963278
-15.8241847,35.053104,Blantyre-Limbe,581,Malawi,962145
19.7027116,-101.1923818,Morelia,582,Mexico,961834
27.6603206,113.8830806,Pingxiang Jiangxi,583,China,953042
48.4680221,35.0417711,Dnipro,584,Ukraine,951821
22.9372087,89.2852741,Khulna,585,Bangladesh,949229
31.7788242,35.2257626,Jerusalem,586,Israel,944188
45.9893785,23.2575051,Cucuta,587,Colombia,943489
43.7009358,7.2683912,Nice,588,France,943342
30.3255646,78.0436813,Dehradun,589,India,943136
37.4201556,127.1262092,Seongnam,590,South Korea,942342
32.753177,-97.3327459,Fort Worth,591,United States,942323
30.4211144,-9.5830626,Agadir,592,Morocco,941839
44.5498406,129.6259558,Mudanjiang,593,China,941660
23.3515642,58.7213422,Hamah,594,Syria,939904
38.5762709,68.7863573,Dushanbe,595,Tajikistan,938444
23.3916357,110.074064,Guiping,596,China,937152
29.6653828,115.9474861,Jiujiang,597,China,936927
50.9025349,-1.404189,Southampton,598,United Kingdom,935868
36.2030789,117.654083,Laiwu,599,China,934916
-16.3988667,-71.5369607,Arequipa,600,Peru,934845
8.3223763,-62.6896622,Ciudad Guayana,601,Venezuela,933968
6.9046909,122.076462,Zamboanga City,602,Philippines,930610
19.333333,-96.666667,Veracruz,603,Mexico,930387
30.3321838,-81.655651,Jacksonville,604,United States,929647
15.5062156,-88.0248937,San Pedro Sula,605,Honduras,929191
27.702973,115.49664,Zhucheng,606,China,926596
14.048667,100.5640405,Pathum Thani,607,Thailand,925893
24.4611511,88.6888703,Rajshahi,608,Bangladesh,924033
40.957718,117.9543248,Chengde,609,China,920395
32.3745318,15.0904886,Misratah,610,Libya,918946
23.1144539,109.5946193,Guigang,611,China,917484
9.9175125,8.8979401,Jos,612,Nigeria,917289
26.0704018,-98.2963932,Reynosa,613,Mexico,917021
32.9176422,117.3825673,Bengbu,614,China,915242
39.9622601,-83.0007065,Columbus,615,United States,913921
18.0018152,-92.9330401,Villahermosa,616,Mexico,913606
21.8603337,111.9776773,Yangjiang,617,China,912468
35.2272086,-80.8430827,Charlotte,618,United States,912096
35.5391697,129.3119136,Ulsan,619,South Korea,910778
4.3907153,18.5509126,Bangui,620,Central African Republic,910270
35.7032751,-0.6492976,Oran,621,Algeria,910030
43.3545179,42.4311796,West Rand,622,South Africa,909301
5.489736,7.0341973,Owerri,623,Nigeria,908109
-20.4640173,-54.6162947,Campo Grande,624,Brazil,907028
53.4071991,-2.99168,Liverpool,625,United Kingdom,906443
14.5870262,121.1758611,Antipolo,626,Philippines,902993
32.0010227,44.3299926,Najaf,627,Iraq,901405
24.5164639,117.6424895,Zhangzhou,628,China,900904
45.7566557,9.7542192,Bergamo,629,Italy,900094
48.0158753,37.8013407,Donetsk,630,Ukraine,899325
30.6635516,113.1616191,Tianmen,631,China,899094
5.517,5.75,Warri,632,Nigeria,898927
-23.3112878,-51.1595023,Londrina,633,Brazil,898681
26.40396,112.934066,Leiyang,634,China,896394
-7.9771206,112.6340291,Malang,635,Indonesia,896009
-34.9206797,-57.9537638,La Plata,636,Argentina,894159
-36.8270795,-73.0502399,Concepcion,637,Chile,891744
37.7364305,115.6677229,Hengshui,638,China,891603
36.0885338,111.512998,Linfen,639,China,891049
27.853572,114.8867147,Xinyu,640,China,890884
24.5910781,91.7177362,Sylhet,641,Bangladesh,890180
40.128668,124.3863404,Dandong,642,China,890031
39.7683331,-86.1583502,Indianapolis,643,United States,887232
-14.966969,39.2707752,Nampula,644,Mozambique,887055
31.1244028,104.39013,Deyang,645,China,885818
29.0948207,-110.9692202,Hermosillo,646,Mexico,883916
37.7790262,-122.419906,San Francisco,647,United States,883255
39.4605657,-5.8816626,Trujillo,648,Peru,877875
13.4115414,43.5570871,Taiz,649,Yemen,875941
16.2915189,80.4541588,Guntur,650,India,875474
31.9092756,120.2630426,Jiangyin,651,China,874924
19.3625308,73.0784747,Bhiwandi,652,India,874032
-14.9191779,13.4896316,Lubango,653,Angola,870935
41.273887,123.1693463,Liaoyang,654,China,870185
29.394644,71.6638747,Bahawalpur,655,Pakistan,869548
36.1829336,113.0985394,Changzhi,656,China,868308
57.153534,65.542274,Tyumen,657,Russia,866741
-25.5263889,28.0994444,Soshanguve,658,South Africa,866005
16.753801,-93.115959,Tuxtla Gutierrez,659,Mexico,865000
37.9404648,58.3823487,Ashgabat,660,Turkmenistan,864695
36.1911624,44.0094652,Erbil,661,Iraq,861158
41.9316387,126.4200169,Baishan,662,China,859381
27.6500795,113.4923249,Liling,663,China,857167
22.9912348,120.184982,Tainan,664,Taiwan,856736
11.9340568,79.8306447,Puducherry,665,India,856354
24.7978965,-107.393395,Culiacan,666,Mexico,856072
29.034552,111.6928724,Changde,667,China,853497
42.0151733,121.6452868,Fuxin,668,China,850647
38.1112268,13.3524434,Palermo,669,Italy,850179
34.4168215,115.6507447,Shangqiu,670,China,850165
37.0616519,114.499746,Xingtai,671,China,849674
25.4100012,49.580833,Hufuf-Mubarraz,672,Saudi Arabia,848479
27.1773663,78.389912,Firozabad,673,India,845746
0.390002,9.454001,Libreville,674,Gabon,845100
30.200255,115.0333466,Huangshi,675,China,844307
51.530018,46.034683,Saratov,676,Russia,840883
31.9553965,35.8906094,Banghazi,677,Libya,836031
39.4697065,-0.3763353,Valencia,678,Spain,835341
28.8744722,105.4385063,Luzhou,679,China,833637
46.8137431,-71.2084061,Quebec City,680,Canada,831776
28.7701941,104.6289601,Yibin,681,China,831013
37.5014422,126.7660139,Bucheon,682,South Korea,829592
4.5986817,101.0900236,Ipoh,683,Malaysia,827719
49.8955367,-97.1384584,Winnipeg,684,Canada,824771
24.8500662,89.3728431,Bogra,685,Bangladesh,820297
-5.056395,12.3211749,Cabinda,686,Angola,819452
5.5324032,7.4924165,Umuahia,687,Nigeria,816983
32.127372,114.0676596,Xinyang,688,China,816967
32.9139151,119.8476035,Xinghua,689,China,815780
54.9738474,-1.6131572,Newcastle upon Tyne,690,United Kingdom,813807
37.85862,113.5730276,Yangquan,691,China,813696
40.6403167,22.9352716,Thessaloniki,692,Greece,812964
26.423568,111.6081495,Yongzhou,693,China,809415
44.4938203,11.3426327,Bologna,694,Italy,808931
37.5493473,45.0682863,Orumiyeh,695,Iran,808149
30.919414,113.9516901,Xiaogan,696,China,806258
35.2477266,115.4464761,Heze,697,China,804759
10.1898503,-64.7087416,Barcelona-Puerto La Cruz,698,Venezuela,804488
11.8395375,13.1536214,Maiduguri,699,Nigeria,802988
41.7238743,86.173541,Kuerle,700,China,801993
37.6452283,138.7669125,Niigata,701,Japan,801982
39.7666813,30.5255947,Eskisehir,702,Turkey,801612
9.740204,76.3324672,Cherthala,703,India,801264
28.9268429,118.8759775,Quzhou,704,China,798191
29.7296617,120.1805427,Zhuji,705,China,796974
-23.5003451,-47.4582864,Sorocaba,706,Brazil,795569
40.8515302,122.7475513,Haicheng,707,China,795424
6.5536094,7.4143061,Enugu,708,Nigeria,795271
52.9534193,-1.1496461,Nottingham,709,United Kingdom,794008
34.5797531,105.7062921,Tianshui,710,China,790461
40.7515443,120.8404789,Huludao,711,China,790403
19.5408338,-96.9146374,Xalapa,712,Mexico,787349
28.0159286,73.3171367,Bikaner,713,India,786652
50.1106444,8.6820917,Frankfurt,714,Germany,784780
27.5611227,109.963365,Huaihua,715,China,784323
15.2241917,101.9313754,Nakhon Ratchasima,716,Thailand,783180
-26.6747222,27.9261111,Vereeniging,717,South Africa,779530
36.4441808,115.9642007,Liaocheng,718,China,778562
47.6038321,-122.3300624,Seattle,719,United States,776555
35.2075729,113.2533977,Jiaozuo,720,China,775685
33.8579594,115.772453,Bozhou,721,China,773217
14.4493717,79.9873763,Nellore,722,India,772941
43.2560802,-79.8728583,Hamilton,723,Canada,770976
40.8006696,29.431767,Gebze,724,Turkey,769633
32.1738588,120.0466771,Taixing,726,China,769620
8.4756417,124.6421532,Cagayan de Oro City,725,Philippines,769620
50.0619474,19.9368564,Krakow,727,Poland,769307
31.3869323,120.9764683,Kunshan,728,China,769021
24.8136095,113.5922116,Shaoguan,729,China,767557
26.6711433,83.3645724,Gorakhpur,730,India,766646
14.3270819,120.9370871,Dasmarinas,731,Philippines,765742
21.1545412,77.6442962,Amravati,732,India,764645
35.493783,112.8519862,Jincheng,733,China,763554
39.5128345,116.6997446,Langfang,734,China,763320
43.6908432,0.7735233,Ansan,735,South Korea,762698
24.9304741,50.9776888,Ar-Rayyan,736,Qatar,759174
35.5574725,45.435202,Sulaimaniya,737,Iraq,758795
20.4686,85.8792,Cuttack,738,India,751859
31.263235,32.305505,Bur Sa'id,739,Egypt,750373
39.7392364,-104.9848623,Denver,740,United States,749103
30.079061,103.8458201,Meishan,741,China,748981
33.0115818,114.0164565,Zhumadian,742,China,747329
29.3419256,104.7761224,Zigong,743,China,746711
-12.9104657,14.0356608,Benguela,744,Angola,745372
36.3654065,119.8005385,Gaomi,745,China,745055
30.6592336,116.6302585,Anqing,746,China,744768
23.6832984,113.0505994,Qingyuan,747,China,744726
-3.3187496,114.5925828,Banjarmasin,748,Indonesia,744334
30.6751205,113.8323146,Hanchuan,749,China,743610
32.0109736,119.6012702,Danyang,750,China,743482
29.4480063,77.740685,Muzaffarnagar,751,India,742227
7.802355,6.7430327,Lokoja,752,Nigeria,741482
32.6450475,130.6341345,Kumamoto,753,Japan,741455
9.6287383,76.6455326,Kottayam,754,India,739212
15.8572666,74.5069343,Belgaum,755,India,738074
32.0668425,36.0885771,Zarqa,756,Jordan,737085
11.0248119,7.6518533,Zaria,757,Nigeria,736098
53.3806626,-1.4702278,Sheffield,758,United Kingdom,735292
-6.0999443,39.3209443,Zanzibar,759,Tanzania,734832
31.5128679,34.4581358,Gaza,760,Palestine,734547
41.6521342,-0.8809428,Zaragoza,761,Spain,733825
28.8602058,121.1419179,Linhai,762,China,732334
47.8507859,35.1182867,Zaporizhzhya,763,Ukraine,731984
20.5902502,74.5714979,Malegaon,764,India,731493
-23.1860383,-45.8866816,Sao Jose dos Campos,765,Brazil,731481
7.7791666,4.5538891,Oshogbo,766,Nigeria,730529
39.604,109.785,Ordos City,767,China,730229
26.958944,111.283087,Shaoyang,768,China,729522
9.172188,76.5008685,Kayamkulam,769,India,726675
46.8087794,130.3734556,Jiamusi,770,China,726622
12.8698101,74.8430082,Mangalore,771,India,724159
34.6553944,133.9194595,Okayama,772,Japan,724157
-21.178333,-47.8066671,Ribeirao Preto,773,Brazil,724044
34.3075655,108.7234362,Xianyang Shaanxi,774,China,723612
1.5557893,30.2519376,Bunia,775,DR Congo,723276
49.841952,24.0315921,Lviv,776,Ukraine,722476
37.2793607,49.5846102,Rasht,777,Iran,722026
36.4794705,119.2129818,Anqiu,778,China,721402
43.6428995,122.2558324,Tongliao,779,China,720662
36.6421169,127.4891742,Cheongju,780,South Korea,720584
32.4935378,74.5411575,Sialkot,781,Pakistan,720439
9.7452286,-63.1799873,Maturin,782,Venezuela,717788
44.23052,-91.864325,Buffalo City,783,South Africa,717067
26.5860102,101.7179276,Panzhihua,784,China,716878
30.5061493,105.574542,Suining Sichuan,785,China,716754
42.8888552,129.5008425,Yanji,786,China,716660
30.9474457,117.8057282,Tongling,787,China,715946
23.5715402,111.0139268,Wuzhou,788,China,715472
17.0604663,-96.7253575,Oaxaca de Juarez,789,Mexico,714983
38.8950368,-77.0365427,Washington,790,United States,714153
32.0898005,72.6782574,Sargodha,791,Pakistan,712961
21.7718836,72.1416449,Bhavnagar,792,India,711625
-28.0023731,153.4145987,Gold Coast,793,Australia,710650
36.5853932,109.4828549,Yan'an,794,China,710029
-12.8104186,28.2068361,Kitwe,795,Zambia,709854
43.7698712,11.2555757,Florence,796,Italy,709064
32.7185614,74.8580917,Jammu,797,India,708612
38.2851657,109.7290619,Yulin Shaanxi,798,China,706571
19.169335,77.311013,Nanded Waghala,799,India,705667
31.216036,107.5027564,Dazhou,800,China,705321
13.6316368,79.4231711,Tirupati,801,India,704615
14.4589855,120.9398889,Bacoor,802,Philippines,704334
-9.535332,16.9364293,Malanje,803,Angola,704271
32.6880537,112.0818901,Dengzhou,804,China,703922
52.0799838,4.3113461,The Hague,805,Netherlands,703588
25.0767425,117.0123483,Longyan,806,China,703524
35.027637,111.002141,Yuncheng,807,China,703194
37.3886303,-5.9953403,Seville,808,Spain,702386
6.3676953,2.4252507,Cotonou,809,Benin,698868
32.8536216,120.3122464,Dongtai,810,China,698218
53.51495,49.407574,Tolyatti,811,Russia,696889
-25.1076701,-64.3494964,Salta,812,Argentina,696715
42.222633,-7.9049545,Merca,813,Somalia,696510
48.8588897,2.320041,Bali,814,Indonesia,695940
30.0393082,121.1501449,Yuyao,815,China,695704
42.3602534,-71.0582912,Boston,816,United States,695506
-18.9188041,-48.2767837,Uberlandia,817,Brazil,695461
21.270278,40.415833,Taif,818,Saudi Arabia,694894
30.9182867,111.9278808,Yuxi,819,China,693811
17.9640988,102.6133707,Vientiane,820,Laos,693594
51.4538022,-2.5972985,Bristol,821,United Kingdom,693552
-9.0478679,-70.5264976,Akure,822,Nigeria,690533
14.1419291,44.1389849,Ibb,823,Yemen,690456
20.5218445,-100.8139609,Celaya,824,Mexico,689735
14.7978677,42.9544872,Al-Hudaydah,825,Yemen,689640
36.8150283,127.1140654,Cheonan,826,South Korea,688543
-23.1887668,-46.884506,Jundiai,827,Brazil,688192
17.166667,77.083333,Gulbarga,828,India,687882
-12.6076318,15.7411039,Huambo,829,Angola,687795
45.4077172,11.8734455,Padova,830,Italy,687698
23.5350475,87.3380425,Durgapur,831,India,686568
15.8309251,78.0425373,Kurnool,832,India,685818
31.7754152,-106.464634,El Paso,833,United States,685434
47.2186371,-1.5541362,Nantes,834,France,685377
26.331667,43.971667,Buraydah,835,Saudi Arabia,684626
45.8131847,15.9771774,Zagreb,836,Croatia,684524
31.8782976,120.5514595,Zhangjiagang,837,China,683500
-0.0226903,109.3447488,Pontianak,838,Indonesia,680655
44.6173543,27.314991,Amara,839,Iraq,680156
50.6451381,5.5734203,Liege,840,Belgium,679895
31.4590371,121.1264772,Taicang,841,China,679623
36.1622767,-86.7742984,Nashville,842,United States,678448
44.40726,8.9338624,Genoa,843,Italy,677222
30.3925379,114.8898988,Ezhou,844,China,676600
9.8694792,-83.7980749,Santiago,845,Dominican Republic,672272
-37.9977225,-57.5482703,Mar Del Plata,846,Argentina,672116
9.4051992,-0.8423986,Tamale,847,Ghana,671812
33.6306299,114.6423617,Zhoukou,848,China,671419
51.7687323,19.4569911,Lodz,849,Poland,671395
-1.6665685,29.225652,Goma,850,DR Congo,670218
35.4729886,-97.5170536,Oklahoma City,851,United States,669347
35.5200185,35.7781044,Lattakia,852,Syria,668809
36.1672559,-115.148516,Las Vegas,853,United States,667501
28.3251866,37.6328648,Tabuk,854,Saudi Arabia,667155
32.7165184,108.9912989,Ankang,855,China,666656
6.112331,125.1717145,General Santos City,856,Philippines,665418
38.7063767,116.1062203,Renqiu,857,China,664262
42.3315509,-83.0466403,Detroit,858,United States,664139
26.2235041,50.5822436,Manama,859,Bahrain,663893
27.6995215,111.9890658,Loudi,860,China,663765
35.8242715,127.1480657,Jeonju,861,South Korea,663607
27.2858633,105.2865997,Bijie,862,China,662697
45.5202471,-122.6741949,Portland,863,United States,662549
13.0611195,5.3152203,Sokoto,864,Nigeria,662173
21.9647835,108.620787,Qinzhou,865,China,661953
22.1757605,113.5514142,Macao,866,Macau,661838
41.2946149,36.3320596,Samsun,867,Turkey,660863
37.7733197,29.0869273,Denizli,868,Turkey,660643
29.9873344,122.2030363,Zhoushan,869,China,659777
45.6119057,8.8520522,Busto Arsizio,870,Italy,657698
30.6316971,120.5610365,Tongxiang,871,China,656136
24.4490237,117.8132438,Longhai,872,China,655081
35.7631348,115.0234071,Puyang,873,China,654261
24.3705146,111.3590955,Hezhou,874,China,654185
25.5310311,78.652689,Jhansi,875,India,653879
29.5827203,105.0544575,Neijiang,876,China,653866
56.866557,53.2094166,Izhevsk,877,Russia,651601
35.1490215,-90.0516285,Memphis,878,United States,651011
22.4732415,70.0552102,Jamnagar,879,India,650977
13.322312,43.252987,As-Suways,880,Egypt,649368
11.3692044,77.6766269,Erode,881,India,647988
25.2856329,51.5264162,Doha,882,Qatar,646177
20.1165413,-98.7413535,Pachuca de Soto,883,Mexico,646101
31.8729183,121.1771295,Haimen,884,China,645598
41.7829291,129.7825241,Chongjin,885,North Korea,645488
-6.766417,-79.8408308,Chiclayo,886,Peru,645366
39.6540161,106.7879045,Wuhai,887,China,644895
47.3355856,130.2836718,Hegang,888,China,644894
18.2534658,109.5034392,Sanya,889,China,644727
31.2457442,34.7925181,Be'er Sheva,890,Israel,644278
24.833333,-104.833333,Durango,891,Mexico,642750
23.6579595,86.0839161,Bokaro Steel City,892,India,642145
51.1263106,16.9781963,Wroclaw,893,Poland,642085
52.289597,104.280586,Irkutsk,894,Russia,641504
53.347402,83.7784496,Barnaul,895,Russia,640396
19.7540045,96.1344976,Nay Pyi Taw,896,Myanmar,639759
-20.1560599,28.5887063,Bulawayo,897,Zimbabwe,639722
28.8101339,113.0613336,Miluo,898,China,639015
45.4371908,12.3345898,Venezia,899,Italy,638264
-1.611572,102.779699,Jambi,900,Indonesia,637037
25.2689153,55.3152795,Safaqis,901,Tunisia,636613
48.481403,135.076935,Khabarovsk,902,Russia,636254
34.3508273,62.2164003,Herat,903,Afghanistan,635579
51.2254018,6.7763137,Duesseldorf,904,Germany,635046
54.596391,-5.9301829,Belfast,905,United Kingdom,634594
31.0440068,46.2575523,Nasiriyah,906,Iraq,634492
48.7784485,9.1800132,Stuttgart,907,Germany,633808
45.4384958,10.9924122,Verona,908,Italy,633128
22.2142849,84.8724369,Raurkela,909,India,631310
32.6075,43.910833,Jubayl,910,Saudi Arabia,631060
56.9493977,24.1051846,Riga,911,Latvia,627763
27.1793466,56.2781423,Bandar Abbas,912,Iran,627174
16.7028412,74.2405329,Kolhapur,913,India,626791
10.6762836,122.9513786,Bacolod,914,Philippines,624783
45.649723,9.2053919,Seregno,915,Italy,624706
54.3107593,48.3642771,Ulyanovsk,916,Russia,624103
-3.1982504,29.0071409,Uvira,917,DR Congo,622862
24.2258413,55.7474052,Al-Ain,918,United Arab Emirates,622675
41.1257843,16.8620293,Bari,919,Italy,622590
22.6570263,110.1765019,Yulin Guangxi,920,China,622115
26.4691,74.639,Ajmer,921,India,621505
1.5574127,110.3439862,Kuching,922,Malaysia,621114
11.861324,-15.583055,Bissau,923,Guinea-Bissau,620974
10.6228284,10.0287754,Bauchi,924,Nigeria,620800
46.2017559,6.1466014,Geneva,925,Switzerland,620131
30.2745483,109.4833079,Enshi,926,China,619178
26.254911,105.9437773,Anshun,927,China,619116
6.9387469,79.8541134,Colombo,928,Sri Lanka,619001
23.4423808,112.6997273,Sihui,929,China,618859
33.069049,107.018889,Hanzhong,930,China,618109
23.1885131,75.7716562,Ujjain,931,India,617812
57.7072326,11.9670171,Gothenburg,932,Sweden,617781
37.6866796,112.7383414,Jinzhong,933,China,617236
30.2090874,76.3398721,Patiala,934,India,616590
29.4928874,60.8503017,Zahedan,935,Iran,616511
28.8680526,79.298385,Bilaspur,936,India,616394
38.2542376,-85.759407,Louisville,937,United States,615924
14.8110432,121.0491569,San Jose del Monte,938,Philippines,615815
15.239041,44.145513,Hillah,939,Iraq,615167
47.9102734,33.3917703,Kryvyi Rih,940,Ukraine,613696
57.6263877,39.8933705,Yaroslavl,941,Russia,612502
50.8214626,-0.1400561,Brighton,942,United Kingdom,612159
-12.2578934,-38.9598047,Feira De Santana,943,Brazil,609939
43.1150678,131.8855768,Vladivostok,944,Russia,609632
23.4610615,91.1808748,Comilla,945,Bangladesh,609345
19.416667,-98.166667,Tlaxcala,946,Mexico,606590
43.1669821,124.364739,Siping,947,China,604724
39.9815552,117.0714873,Sanhe,948,China,604549
4.9795999,8.3373597,Calabar,949,Nigeria,604546
27.633333,77.583333,Mathura,950,India,603301
6.3208897,8.1133202,Abakaliki,951,Nigeria,601712
34.5307313,113.3761237,Xinmi,952,China,600980
41.9960924,21.4316495,Skopje,953,North Macedonia,600708
42.9830241,47.5048717,Makhachkala,954,Russia,600541
58.6124279,82.0475315,Tomsk,955,Russia,600254
32.0165721,120.2693683,Jingjiang,956,China,599221
24.7337639,118.6439351,Shishi,957,China,598547
25.6301525,119.3756376,Fuqing,958,China,597698
37.2595198,39.0408174,Sanliurfa,959,Turkey,596713
51.3406321,12.3747329,Leipzig,960,Germany,596230
23.8312377,91.2823821,Agartala,961,India,595210
30.3635622,113.4170705,Xiantao,962,China,594155
47.7231316,128.8785919,Yichun Heilongjiang,963,China,593871
24.7991162,93.9364419,Imphal,964,India,593524
30.0981854,114.9747162,Daye,965,China,592972
-8.9740144,33.3915834,Mbeya,966,Tanzania,592579
22.9212029,110.9898501,Cenxi,967,China,592553
17.9712148,-76.7928128,Kingston,968,Jamaica,592477
16.8502534,74.5948885,Sangli,969,India,592117
-15.5986686,-56.0991301,Cuiaba,970,Brazil,591522
39.6550017,66.9756954,Samarkand,971,Uzbekistan,591252
36.7213028,-4.4216366,Malaga,972,Spain,591091
4.4386453,-75.2105974,Ibague,973,Colombia,590686
51.5142273,7.4652789,Dortmund,974,Germany,589748
31.521587,130.5474077,Kagoshima,975,Japan,588413
10.395075,-71.4414049,Cabimas,976,Venezuela,588348
45.7700345,131.0074987,Qitaihe,977,China,588212
43.0349931,-87.922497,Milwaukee,978,United States,587721
37.5023612,15.0873718,Catania,979,Italy,586049
13.5708192,100.2585874,Samut Sakhon,980,Thailand,585964
-10.9891601,26.7397418,Likasi,981,DR Congo,585678
-19.828707,34.841782,Beira,982,Mozambique,584989
34.973321,48.6555779,Hamadan,983,Iran,584645
39.3307915,112.4235469,Shuozhou,984,China,584272
41.7225544,125.9170455,Tonghua,985,China,584209
11.8145966,42.8453061,Djibouti,986,Djibouti,583695
51.4582235,7.0158171,Essen,987,Germany,581579
43.1257311,5.9304919,Toulon,988,France,581264
51.0493286,13.7381437,Dresden,989,Germany,580877
-21.7609533,-43.3501129,Juiz De Fora,990,Brazil,580874
7.6906058,-5.0298408,Bouake,991,Ivory Coast,580586
4.8142613,-75.6946776,Pereira,992,Colombia,580225
24.578721,73.6862571,Udaipur,993,India,580191
34.7678842,111.1908398,Sanmenxia,994,China,579273
12.7948109,79.0006411,Vellore,995,India,578956
29.2908082,120.2366509,Dongyang,996,China,578734
38.4583983,47.9313001,Ardabil,997,Iran,578222
8.7567452,78.0797527,Thoothukkudi,998,India,577945
-29.116395,26.215496,Bloemfontein,999,South Africa,577560
22.4277951,111.1032678,Xinyi,1000,China,577474